[
  { "id": "kfupm", "name": "جامعة الملك فهد للبترول والمعادن", "location": "الظهران", "region": "الشرقية" },
  { "id": "ksu", "name": "جامعة الملك سعود", "location": "الرياض", "region": "الوسطى" },
  { "id": "kau", "name": "جامعة الملك عبدالعزيز", "location": "جدة", "region": "الغربية" },
  { "id": "iau", "name": "جامعة الإمام عبدالرحمن بن فيصل", "location": "الدمام", "region": "الشرقية" },
  { "id": "imamu", "name": "جامعة الإمام محمد بن سعود الإسلامية", "location": "الرياض", "region": "الوسطى" },
  { "id": "iu", "name": "الجامعة الإسلامية", "location": "المدينة المنورة", "region": "المدينة" },
  { "id": "ksau-hs", "name": "جامعة الملك سعود للعلوم الصحية", "location": "الرياض/جدة/الأحساء", "region": "متعدد" },
  { "id": "uqu", "name": "جامعة أم القرى", "location": "مكة المكرمة", "region": "الغربية" },
  { "id": "kfu", "name": "جامعة الملك فيصل", "location": "الأحساء", "region": "الشرقية" },
  { "id": "kku", "name": "جامعة الملك خالد", "location": "أبها", "region": "الجنوبية" },
  { "id": "qu", "name": "جامعة القصيم", "location": "بريدة", "region": "القصيم" },
  { "id": "tu", "name": "جامعة طيبة", "location": "المدينة المنورة", "region": "المدينة" },
  { "id": "taif", "name": "جامعة الطائف", "location": "الطائف", "region": "الغربية" },
  { "id": "jazanu", "name": "جامعة جازان", "location": "جازان", "region": "الجنوبية" },
  { "id": "ut", "name": "جامعة تبوك", "location": "تبوك", "region": "الشمالية" },
  { "id": "uoh", "name": "جامعة حائل", "location": "حائل", "region": "الشمالية" },
  { "id": "uj", "name": "جامعة جدة", "location": "جدة", "region": "الغربية" },
  { "id": "ju", "name": "جامعة الجوف", "location": "سكاكا", "region": "الشمالية" },
  { "id": "bu", "name": "جامعة الباحة", "location": "الباحة", "region": "الجنوبية" },
  { "id": "nu", "name": "جامعة نجران", "location": "نجران", "region": "الجنوبية" },
  { "id": "su", "name": "جامعة شقراء", "location": "شقراء", "region": "الوسطى" },
  { "id": "mu", "name": "جامعة المجمعة", "location": "المجمعة", "region": "الوسطى" },
  { "id": "psau", "name": "جامعة الأمير سطام بن عبدالعزيز", "location": "الخرج", "region": "الوسطى" },
  { "id": "uhb", "name": "جامعة حفر الباطن", "location": "حفر الباطن", "region": "الشرقية" },
  { "id": "nbu", "name": "جامعة الحدود الشمالية", "location": "عرعر", "region": "الشمالية" },
  { "id": "ub", "name": "جامعة بيشة", "location": "بيشة", "region": "الجنوبية" }
]
